[{
  "name": "Perf Test2",
  "latitude": 41.256538,
  "longitude": -95.934502,
  "phoneNumber": "555-555-5555",
  "emailAddress": "perftest2@perftest2.com",
  "website": "https://perftest2.com",
  "streetLine1": "123 Example Ln.",
  "streetLine2": "Ste 400",
  "city": "Omaha",
  "state": "NE",
  "zipCode": "980011"
},
  {
    "name": "Perf Test3",
    "latitude": 39.550053,
    "longitude": -105.782066,
    "phoneNumber": "555-555-5555",
    "emailAddress": "perftest3@perftest3.com",
    "website": "https://perftest3.com",
    "streetLine1": "123 Example Ln.",
    "streetLine2": "Ste 400",
    "city": "Colorado",
    "state": "Denver",
    "zipCode": "980022"
  },
  {
    "name": "Perf Test4",
    "latitude": 43.784439,
    "longitude": -88.787865,
    "phoneNumber": "555-555-5555",
    "emailAddress": "perftest4@perftest4.com",
    "website": "https://perftest4.com",
    "streetLine1": "123 Example Ln.",
    "streetLine2": "Ste 400",
    "city": "Wisconsin",
    "state": "WI",
    "zipCode": "980033"
  },
  {
    "name": "Perf Test5",
    "latitude": 47.605480,
    "longitude": -122.035561,
    "phoneNumber": "555-555-5555",
    "emailAddress": "perftest5@perftest5.com",
    "website": "https://perftest5.com",
    "streetLine1": "123 Example Ln.",
    "streetLine2": "Ste 400",
    "city": "Sammamish",
    "state": "Washington",
    "zipCode": "980045"
  },
  {
    "name": "Perf Test6",
    "latitude": 47.978985,
    "longitude": -122.202080,
    "phoneNumber": "555-555-5555",
    "emailAddress": "perftest6@perftest5.com",
    "website": "https://perftest5.com",
    "streetLine1": "123 Example Ln.",
    "streetLine2": "Ste 400",
    "city": "Everett",
    "state": "Washington",
    "zipCode": "980045"
  },
  {
    "name": "Perf Test7",
    "latitude": 34.519939,
    "longitude": -105.870087,
    "phoneNumber": "555-555-5555",
    "emailAddress": "perftest7@perftest5.com",
    "website": "https://perftest7.com",
    "streetLine1": "123 Example Ln.",
    "streetLine2": "Ste 400",
    "city": "New Mexico",
    "state": "New Mexico",
    "zipCode": "980047"
  },
  {
    "name": "Perf Test8",
    "latitude": 40.058323 ,
    "longitude": -74.405663,
    "phoneNumber": "555-555-5555",
    "emailAddress": "perftest8@perftest5.com",
    "website": "https://perftest8.com",
    "streetLine1": "123 Example Ln.",
    "streetLine2": "Ste 400",
    "city": "New Jersey",
    "state": "New Jersey",
    "zipCode": "980047"
  },
  {
    "name": "Perf Test9",
    "latitude": -34.875961 ,
    "longitude": -58.049469,
    "phoneNumber": "555-555-5555",
    "emailAddress": "perftest9@perftest5.com",
    "website": "https://perftest9.com",
    "streetLine1": "123 Example Ln.",
    "streetLine2": "Ste 400",
    "city": "Massachusets",
    "state": "Massachusets",
    "zipCode": "980047"
  },
  {
    "name": "Perf Test10",
    "latitude": 51.507351 ,
    "longitude": -0.127758,
    "phoneNumber": "555-555-5555",
    "emailAddress": "perftest10@perftest5.com",
    "website": "https://perftest10.com",
    "streetLine1": "123 Example Ln.",
    "streetLine2": "Ste 400",
    "city": "London",
    "state": "London",
    "zipCode": "980047"
  }
]